,Full_Address,long,lat
0,", Missoula, MT",-113.9940314,46.8721284
1,"110 W Broadway, Missoula, MT",-113.9956279,46.872957
2,"250  STATION DR, Missoula, MT",-113.9983799,46.8675282
3,"201 W FRONT & MAIN, Missoula, MT",-113.9968976,46.8718429
4,"1021 E Broadway, Missoula, MT",-113.9793027,46.8667646
5,"500 S HIGGINS, Missoula, MT",-113.9964948,46.8664628
6,"115 W Broadway, Missoula, MT",-113.9949881,46.8720721
7,"147 W BROADWAY, Missoula, MT",-113.9955424,46.8721697
8,"145 W FRONT ST, Missoula, MT",-113.9967017,46.8703988
9,"430 N HIGGINS AVE, Missoula, MT",-113.9928375,46.8736956
